station_name,longitude,latitude,city,open_date,owner_type_code,fuel_type_code
Hyatt at Fisherman's Wharf,-122.4152,37.80619,San Francisco,1998-07-01,P,ELEC
Palace Hotel,-122.401,37.78881,San Francisco,2002-01-31,P,ELEC
Mark Hopkins InterContinental Hotel,-122.411265,37.791791,San Francisco,2002-01-31,P,ELEC
Parc 55 Hotel,-122.408991,37.784871,San Francisco,2011-02-01,P,ELEC
Beach & Hyde Garage,-122.419488,37.806798,San Francisco,2011-02-01,P,ELEC
Golden Gate Park - Music Concourse Garage,-122.468341,37.768766,San Francisco,2012-04-10,P,ELEC
InterContinental Hotel - San Francisco,-122.404764,37.782079,San Francisco,2011-08-01,P,ELEC
San Francisco State University,-122.477023,37.720848,San Francisco,2013-07-16,SG,ELEC
Fort Mason,-122.428903,37.804677,San Francisco,2012-06-01,FG,ELEC
Fort Mason,-122.428183,37.805045,San Francisco,2012-06-01,FG,ELEC
Pacific Place Garage,-122.405334,37.784911,San Francisco,2018-08-15,,ELEC
JPMorgan Parking Garage,-122.399359,37.788865,San Francisco,2014-08-01,P,ELEC
Stonestown Galleria Trader Joes,-122.47599,37.726664,San Francisco,2014-08-01,,ELEC
Extra Space Storage,-122.402416,37.749068,San Francisco,2014-09-01,T,ELEC
Stanford Court Hotel,-122.409718,37.791983,San Francisco,2014-03-31,P,ELEC
Park 'N Fly,-122.407022,37.647798,San Francisco,2015-04-01,P,ELEC
Golden Gate National Recreation Area - Fort Mason,-122.429484,37.803955,San Francisco,2016-01-27,FG,ELEC
Fort Mason,-122.4310408,37.8067536,San Francisco,2016-01-27,FG,ELEC
Caltrans - District 32,-122.409883,37.73345,San Francisco,2017-12-04,SG,ELEC
Fuse Project,-122.401169,37.7660567,San Francisco,2014-08-01,P,ELEC
Anchorage Garage - 500 Beach,-122.4178309,37.80748,San Francisco,2014-08-28,,ELEC
Tishman Speyer,-122.39968,37.791185,San Francisco,2015-01-14,,ELEC
Owens St Parking Garage,-122.3942639,37.767928,San Francisco,2016-07-08,,ELEC
Environmental Protection Agency,-122.398057,37.785487,San Francisco,2018-04-01,FG,ELEC
Department of Veterans Affairs VISN 21,-122.505051,37.782007,San Francisco,2018-09-01,FG,ELEC
101 Second Street Garage - Tesla Destination,-122.39918,37.788097,San Francisco,2016-06-10,P,ELEC
101 California Street Garage - Tesla Destination,-122.397675,37.792826,San Francisco,2016-06-08,P,ELEC
345 California Center Parking Garage - Tesla Destination,-122.39998,37.792496,San Francisco,2015-01-27,P,ELEC
"Hotel Kabuki, a Joie de Vivre Hotel - Tesla Destination",-122.428919,37.785523,San Francisco,2015-11-20,P,ELEC
"Hotel Buchanan, a Kimpton Hotel - Tesla Destination",-122.430143,37.78679,San Francisco,2015-11-23,P,ELEC
Loews Regency San Francisco - Tesla Destination,-122.401039,37.792442,San Francisco,2015-01-22,P,ELEC
Hilton San Francisco Union Square - Tesla Destination,-122.410433,37.786079,San Francisco,2015-11-02,P,ELEC
The Westin St. Francis San Francisco on Union Square - Tesla Destination,-122.408731,37.787828,San Francisco,2018-10-03,P,ELEC
Park Central Hotel - Tesla Destination,-122.402827,37.78671,San Francisco,2014-04-04,P,ELEC
The Ritz-Carlton Hotel San Francisco - Tesla Destination,-122.407178,37.791878,San Francisco,2015-12-08,P,ELEC
San Francisco Marriott Marquis - Tesla Destination,-122.4043,37.7849,San Francisco,2015-02-03,P,ELEC
The Fairmont San Francisco - Tesla Destination,-122.410035,37.792496,San Francisco,2014-12-10,P,ELEC
InterContinental Mark Hopkins San Francisco - Tesla Destination,-122.410385,37.791596,San Francisco,2015-01-22,P,ELEC
San Francisco Zoo - Tesla Destination,-122.505159,37.73313,San Francisco,2017-11-20,P,ELEC
Bay Area Metro Center,-122.391285,37.787815,San Francisco,2018-10-25,LG,ELEC
Fairmont Heritage Place Ghirardelli Square - Tesla Destination,-122.423418,37.805388,San Francisco,2014-11-18,P,ELEC
521422-Ghiradelli Square,-122.4225,37.805639,San Francisco,2019-05-19,,ELEC
521406-222 2nd St,-122.397949,37.786651,San Francisco,2019-05-25,,ELEC
EVSP WALGREENS STORE 2088,-122.433831,37.750738,San Francisco,2019-08-21,,ELEC
St. Ignatius College Preparatory,-122.49572,37.749666,San Francisco,2019-08-01,P,ELEC
Four Embarcadero Center,-122.3961,37.7952,San Francisco,2011-10-05,,ELEC
Two Embarcadero Center,-122.3985003,37.7950272,San Francisco,2012-02-06,,ELEC
531404  Two Embarcadero Center,-122.3985089,37.794454,San Francisco,2016-06-16,,ELEC
531403  Four Embarcadero Center,-122.3985089,37.794454,San Francisco,2015-09-09,,ELEC
Foundry III,-122.3961165,37.7879608,San Francisco,2014-04-07,,ELEC
101 Second Street Garage,-122.3994485,37.7878613,San Francisco,2015-08-13,,ELEC
ACE Parking - 625 2nd St Pkg Grg,-122.3912756,37.7814995,San Francisco,2011-11-28,,ELEC
ACE Parking / 1776 Sacramento,-122.4221102,37.7915441,San Francisco,2011-11-29,,ELEC
Broadway Charger (btw Pierce & Steiner),-122.437701,37.79422,San Francisco,2012-02-24,,ELEC
ACE PKG - 875 HOWARD GRG,-122.4041764,37.7819286,San Francisco,2011-11-28,,ELEC
Dolby Laboratories,-122.415426,37.777522,San Francisco,2014-12-15,,ELEC
Letterman Digital Arts Center - Tesla Supercharger,-122.448715,37.798185,San Francisco,2019-09-30,P,ELEC
Golden Gate National Recreation Area - Fort Mason,-122.432211,37.805408,San Francisco,2019-09-01,FG,ELEC
Hilton San Francisco Financial District - Tesla Destination,-122.404869,37.795208,San Francisco,2019-04-24,P,ELEC
The Masonic - Tesla Destination,-122.412813,37.791537,San Francisco,2019-05-01,P,ELEC
UCSF - 1630 3rd Garage,-122.39,37.768,San Francisco,2018-01-01,SG,ELEC
Community Center Garage,-122.393775,37.768299,San Francisco,2017-05-03,,ELEC
Third Street Garage,-122.389712,37.768046,San Francisco,2017-02-10,,ELEC
Owens Street Garage,-122.392255,37.765967,San Francisco,2017-01-11,,ELEC
UCSF Parnassus,-122.458463,37.764017,San Francisco,2017-11-22,,ELEC
Letterman Digital Arts Center Public,-122.448826,37.798811,San Francisco,2018-10-26,,ELEC
Stonestown Galleria Sports Basement,-122.477707,37.728954,San Francisco,2020-01-20,,ELEC
CCSF-SFMTA JCG ANNEX 1,-122.432567,37.784902,San Francisco,2020-02-07,,ELEC
HUDSON PACIFIC 1455 STATION 10,-122.417113,37.774846,San Francisco,2020-02-14,,ELEC
HUDSON PACIFIC 1455 STATION 9,-122.417127,37.774854,San Francisco,2020-02-14,,ELEC
625 GARAGE STATION 1,-122.390854,37.781887,San Francisco,2020-03-31,,ELEC
550 KEARNY STATION 1,-122.404236,37.793514,San Francisco,2020-05-07,,ELEC
RINCON CENTER RINCON 3,-122.39286,37.79186,San Francisco,2020-05-13,,ELEC
CCSF-SFMTA CIVIC CTR 6,-122.417671,37.780295,San Francisco,2020-06-12,,ELEC
FAAO CHARGE STATION 2,-122.41977,37.806522,San Francisco,2020-06-12,,ELEC
CHASE CENTER BBOPS 1,-122.388589,37.768009,San Francisco,2020-06-12,,ELEC
CCSF-SFMTA MOSCONE CTR 5,-122.399612,37.784401,San Francisco,2020-06-12,,ELEC
CCSF-SFMTA SFGH 3,-122.405106,37.754872,San Francisco,2020-06-12,,ELEC
BEACON GARAGE 250 KING ST 4,-122.393055,37.778305,San Francisco,2020-06-12,,ELEC
CCSF-SFMTA SUTTER 1,-122.406038,37.78932,San Francisco,2020-06-12,,ELEC
PARKMERCED FO150PMTOWER2G,-122.473492,37.715705,San Francisco,2020-06-12,,ELEC
PARKMERCED F0100PMTOWER2G,-122.472778,37.715233,San Francisco,2020-06-12,,ELEC
450 SOUTH ST EV STATION 06,-122.388411,37.769004,San Francisco,2020-06-12,,ELEC
PARKMERCED CH055PMTOWER2G,-122.472559,37.713888,San Francisco,2020-06-12,,ELEC
CCSF - SFO SFO LOT D-3,-122.384864,37.616523,San Francisco,2020-06-12,,ELEC
CCSF - SFO SFO LOT B-1,-122.385964,37.61551,San Francisco,2020-06-12,,ELEC
"LONGFELLOW 1800 6 (67,86)",-122.392587,37.765729,San Francisco,2020-06-12,,ELEC
UCSF CAMPUS ACC P7 EV2,-122.457723,37.763552,San Francisco,2020-06-12,,ELEC
UCSF CAMPUS ACC P5 EV2,-122.45763,37.763634,San Francisco,2020-06-12,,ELEC
275 BATTERY 275 BATTERY 1,-122.400455,37.793828,San Francisco,2020-06-12,,ELEC
STATION 1 CHARGER 1,-122.398394,37.792189,San Francisco,2020-06-12,,ELEC
BAMC P1 STATION 2,-122.391391,37.788014,San Francisco,2020-06-12,,ELEC
CCSF SFMTA ELLIS 1,-122.407309,37.785976,San Francisco,2020-06-12,,ELEC
4A CHARGERS MAIN GARAGE 4A,-122.422422,37.806046,San Francisco,2020-06-12,,ELEC
UCSF CAMPUS MBEVSE1,-122.393962,37.76829,San Francisco,2020-06-12,,ELEC
BASEMENT LEVEL 270 STATION 2,-122.391199,37.782762,San Francisco,2020-06-12,,ELEC
UDR 399 FREMONT 85,-122.392127,37.786936,San Francisco,2020-06-12,,ELEC
MONOGRAM RES OLUME 2,-122.416038,37.774966,San Francisco,2020-06-12,,ELEC
CCSF - SFO VALET 4-1,-122.384989,37.616257,San Francisco,2020-06-12,,ELEC
CCSF-SFMTA ST MARYS 4,-122.40499,37.792015,San Francisco,2020-06-12,,ELEC
CCSF-SFMTA JAPAN CTR 1,-122.43,37.785057,San Francisco,2020-06-12,,ELEC
PELL 600 HAR 1,-122.395858,37.784104,San Francisco,2020-06-12,,ELEC
ARE-ILLINOIS ST STATION 1,-122.387537,37.766051,San Francisco,2020-06-12,,ELEC
G1 EV CHARGERS 455 MARKET,-122.398522,37.79081,San Francisco,2020-06-12,,ELEC
ARE-ILLINOIS ST STATION 2,-122.387597,37.766074,San Francisco,2020-06-12,,ELEC
425 MARKET ST. STATION 2,-122.39837,37.79119,San Francisco,2020-06-12,,ELEC
ESSEX MISSION BAY 3,-122.391584,37.773019,San Francisco,2020-06-12,,ELEC
UCSF CAMPUS MBHOSPITAL EV5,-122.394213,37.768125,San Francisco,2020-06-12,,ELEC
333 BRANNAN STATION #1,-122.392353,37.781056,San Francisco,2020-06-12,,ELEC
WHOLE FOODS MKT 1150 OCEAN 1,-122.454994,37.723972,San Francisco,2020-06-12,,ELEC
ABM PARKING LOT A-1,-122.389495,37.773097,San Francisco,2020-07-17,,ELEC
UDR SHOP 1,-122.397095,37.772633,San Francisco,2020-07-29,,ELEC
"Pine Street, CA Inc.",-122.4045169,37.7919436,San Francisco,2020-08-01,,ELEC
"Safeway 0739 - San Francisco, CA",-122.42203,37.74291,San Francisco,2020-08-06,,ELEC
"Safeway 0985 - San Francisco, CA",-122.48867,37.75397,San Francisco,2020-08-12,,ELEC
Opera Plaza - Tesla Supercharger,-122.421319,37.781445,San Francisco,2020-08-17,P,ELEC
Lakeshore Plaza,-122.48944,37.73241,San Francisco,2020-10-15,,ELEC
Alice Griffith Apartments - 2700,-122.385519,37.71823,San Francisco,2020-10-28,,ELEC
Dr. George W. Davis Senior Center,-122.395556,37.725662,San Francisco,2020-11-04,,ELEC
275 Battery St - Tesla Destination,-122.40037,37.793863,San Francisco,2019-10-21,P,ELEC
55 Second Street Garage - Tesla Destination,-122.400563,37.788655,San Francisco,2016-03-15,P,ELEC
China Basin - Tesla Destination,-122.392039,37.776503,San Francisco,2020-11-03,P,ELEC
Flickr HQ - Tesla Destination,-122.392477,37.786933,San Francisco,2020-11-03,P,ELEC
Recology San Francisco - Tesla Destination,-122.401032,37.70817,San Francisco,2020-11-03,P,ELEC
ThirdLove HQ - Tesla Destination,-122.388331,37.761671,San Francisco,2020-11-03,P,ELEC
"Safeway 0995 - San Francisco, CA",-122.4313,37.78365,San Francisco,2020-12-31,,ELEC
Adobe - SF Office - Phase 1,-122.401661,37.770767,San Francisco,2019-12-31,P,ELEC
City of San Francisco - 49 SVN,-122.418547,37.774142,San Francisco,2020-05-28,P,ELEC
City of San Francisco - Civic Center,-122.417714,37.780368,San Francisco,2019-05-31,P,ELEC
CCSF-SFMTA SUTTER 5,-122.406539,37.790001,San Francisco,2021-01-27,,ELEC
HUDSON PACIFIC 1455 STATION 3,-122.417238,37.774915,San Francisco,2021-01-27,,ELEC
HUDSON PACIFIC 1455 STATION 5,-122.417204,37.7749,San Francisco,2021-01-27,,ELEC
HUDSON PACIFIC 1455 STATION 7,-122.417163,37.774876,San Francisco,2021-01-27,,ELEC
HUDSON PACIFIC 1455 STATION 1,-122.41726,37.774933,San Francisco,2021-01-27,,ELEC
HUDSON PACIFIC 1455 STATION 8,-122.417151,37.774868,San Francisco,2021-01-27,,ELEC
HUDSON PACIFIC 1455 STATION 6,-122.417189,37.774891,San Francisco,2021-01-27,,ELEC
HUDSON PACIFIC 1455 STATION 4,-122.417212,37.774905,San Francisco,2021-01-27,,ELEC
HUDSON PACIFIC 1455 STATION 2,-122.417247,37.774923,San Francisco,2021-01-27,,ELEC
RINCON CENTER RINCON 2,-122.392876,37.791862,San Francisco,2021-01-27,,ELEC
RINCON CENTER RINCON 1,-122.392746,37.791744,San Francisco,2021-01-27,,ELEC
CCSF-SFMTA CIVIC CTR 7,-122.417635,37.780296,San Francisco,2021-01-27,,ELEC
CCSF-SFMTA CIVIC CTR 8,-122.41761,37.780302,San Francisco,2021-01-27,,ELEC
CCSF-SFMTA CIVIC CTR 5,-122.417846,37.780124,San Francisco,2021-01-27,,ELEC
CCSF-SFMTA CIVIC CTR 4,-122.417725,37.780122,San Francisco,2021-01-27,,ELEC
CHASE CENTER BBOPS 2,-122.388565,37.768081,San Francisco,2021-01-27,,ELEC
FAAO CHARGE STATION 3,-122.419826,37.806466,San Francisco,2021-01-27,,ELEC
FAAO CHARGE STATION 1,-122.419812,37.80648,San Francisco,2021-01-27,,ELEC
CCSF-SFMTA UNION SQUARE 2,-122.407568,37.787932,San Francisco,2021-01-27,,ELEC
BEACON GARAGE 250 KING ST 3,-122.393063,37.778307,San Francisco,2021-01-27,,ELEC
BEACON GARAGE 250 KING ST 2,-122.393071,37.77832,San Francisco,2021-01-27,,ELEC
BEACON GARAGE 250 KING ST 1,-122.393082,37.778322,San Francisco,2021-01-27,,ELEC
CCSF - SFO SFO LTP 6K.5G,-122.401344,37.635641,San Francisco,2021-01-27,,ELEC
CCSF - SFO SFO LTP 6K.1G,-122.401317,37.635603,San Francisco,2021-01-27,,ELEC
CCSF - SFO SFO LTP 6K.9,-122.401363,37.635699,San Francisco,2021-01-27,,ELEC
CCSF - SFO SFO LTP 6K.8,-122.401331,37.635654,San Francisco,2021-01-27,,ELEC
CCSF - SFO SFO LTP 6K.7,-122.40139,37.635684,San Francisco,2021-01-27,,ELEC
CCSF - SFO SFO LTP 6K.6,-122.401374,37.635671,San Francisco,2021-01-27,,ELEC
CCSF - SFO SFO LTP 6K.4,-122.401387,37.635654,San Francisco,2021-01-27,,ELEC
CCSF - SFO SFO LTP 6K.3,-122.401384,37.63565,San Francisco,2021-01-27,,ELEC
CCSF - SFO SFO LTP 6K.2,-122.40136,37.635663,San Francisco,2021-01-27,,ELEC
CCSF - SFO SFO LTP 3K.8,-122.401314,37.635646,San Francisco,2021-01-27,,ELEC
CCSF - SFO SFO LTP 3K.7,-122.401351,37.635619,San Francisco,2021-01-27,,ELEC
CCSF - SFO SFO LTP 3K.6,-122.401338,37.635663,San Francisco,2021-01-27,,ELEC
CCSF - SFO SFO LTP 3K.4,-122.4013,37.635663,San Francisco,2021-01-27,,ELEC
CCSF - SFO SFO LTP 3K.9,-122.401338,37.635672,San Francisco,2021-01-27,,ELEC
CCSF - SFO SFO LTP 3K.1,-122.401341,37.635612,San Francisco,2021-01-27,,ELEC
CCSF - SFO SFO LTP 3K.5G,-122.401322,37.635653,San Francisco,2021-01-27,,ELEC
CCSF - SFO SFO LTP 1K.40,-122.401984,37.636516,San Francisco,2021-01-27,,ELEC
CCSF - SFO SFO LTP 1L.41G,-122.402038,37.636494,San Francisco,2021-01-27,,ELEC
CCSF - SFO SFO LTP 1K.8,-122.401346,37.635693,San Francisco,2021-01-27,,ELEC
CCSF - SFO SFO LTP 1K.7,-122.401351,37.635672,San Francisco,2021-01-27,,ELEC
CCSF - SFO SFO LTP 1K.6,-122.401336,37.635641,San Francisco,2021-01-27,,ELEC
CCSF - SFO SFO LTP 1K.5G,-122.401326,37.635679,San Francisco,2021-01-27,,ELEC
CCSF - SFO SFO LTP 1K.4,-122.401336,37.635631,San Francisco,2021-01-27,,ELEC
CCSF - SFO SFO LTP 1K.3,-122.401319,37.63564,San Francisco,2021-01-27,,ELEC
CCSF - SFO SFO LTP 1K.2,-122.401297,37.635612,San Francisco,2021-01-27,,ELEC
CCSF - SFO SFO LTP 1K.1,-122.401303,37.635612,San Francisco,2021-01-27,,ELEC
CCSF - SFO SFO LTP 3K.2,-122.401373,37.635651,San Francisco,2021-01-27,,ELEC
CCSF - SFO SFO LTP 3K.3,-122.401335,37.635682,San Francisco,2021-01-27,,ELEC
CCSF - SFO SFO LTP 1L.42,-122.402106,37.636483,San Francisco,2021-01-27,,ELEC
CCSF - SFO SFO LTP 1K.9,-122.40134,37.635659,San Francisco,2021-01-27,,ELEC
450 SOUTH ST EV STATION 03,-122.388373,37.769013,San Francisco,2021-01-27,,ELEC
450 SOUTH ST EV STATION 04,-122.388522,37.769251,San Francisco,2021-01-27,,ELEC
450 SOUTH ST EV STATION 05,-122.388478,37.769243,San Francisco,2021-01-27,,ELEC
450 SOUTH ST EV STATION 08,-122.38847,37.769255,San Francisco,2021-01-27,,ELEC
450 SOUTH ST EV STATION 07,-122.388429,37.769185,San Francisco,2021-01-27,,ELEC
450 SOUTH ST EV STATION 02,-122.388319,37.769204,San Francisco,2021-01-27,,ELEC
450 SOUTH ST EV STATION 01,-122.388304,37.769132,San Francisco,2021-01-27,,ELEC
CCSF - SFO SFO LOT A-2,-122.386781,37.615658,San Francisco,2021-01-27,,ELEC
CCSF - SFO SFO LOT A-6,-122.386827,37.615579,San Francisco,2021-01-27,,ELEC
CCSF - SFO SFO LOT E-2,-122.385766,37.617043,San Francisco,2021-01-27,,ELEC
CCSF - SFO SFO LOT A-1,-122.386736,37.615728,San Francisco,2021-01-27,,ELEC
CCSF - SFO SFO LOT D-1,-122.385122,37.616497,San Francisco,2021-01-27,,ELEC
CCSF - SFO SFO LOT E-1,-122.385723,37.617131,San Francisco,2021-01-27,,ELEC
CCSF - SFO SFO LOT C-1,-122.385027,37.615877,San Francisco,2021-01-27,,ELEC
CCSF - SFO SFO LOT E-6,-122.385675,37.617183,San Francisco,2021-01-27,,ELEC
CCSF - SFO SFO LOT G-1,-122.387034,37.616775,San Francisco,2021-01-27,,ELEC
CCSF - SFO SFO LOT C-3,-122.385237,37.615827,San Francisco,2021-01-27,,ELEC
CCSF - SFO SFO LOT C-4,-122.385129,37.615766,San Francisco,2021-01-27,,ELEC
CCSF - SFO SFO LOT C-6,-122.384899,37.615852,San Francisco,2021-01-27,,ELEC
CCSF - SFO SFO LOT E-3,-122.385554,37.616899,San Francisco,2021-01-27,,ELEC
CCSF - SFO SFO LOT F-7,-122.386806,37.61707,San Francisco,2021-01-27,,ELEC
CCSF - SFO SFO LOT E-4,-122.38551,37.617028,San Francisco,2021-01-27,,ELEC
CCSF - SFO SFO LOT E-5,-122.385454,37.617138,San Francisco,2021-01-27,,ELEC
CCSF - SFO SFO LOT D-2,-122.384993,37.616514,San Francisco,2021-01-27,,ELEC
CCSF - SFO SFO LOT G-2,-122.38712,37.616796,San Francisco,2021-01-27,,ELEC
CCSF - SFO SFO LOT B-2,-122.385953,37.615412,San Francisco,2021-01-27,,ELEC
"LONGFELLOW 1800 1 (6,7)",-122.392623,37.765712,San Francisco,2021-01-27,,ELEC
"LONGFELLOW 1800 3 (20,54)",-122.392596,37.765763,San Francisco,2021-01-27,,ELEC
"LONGFELLOW 1800 5 (60,61)",-122.392585,37.765804,San Francisco,2021-01-27,,ELEC
"LONGFELLOW 1800 2 (9,10)",-122.392559,37.765755,San Francisco,2021-01-27,,ELEC
"LONGFELLOW 1800 4 (57,58)",-122.392596,37.765772,San Francisco,2021-01-27,,ELEC
"LONGFELLOW 1800 9 (92,92)",-122.392564,37.765695,San Francisco,2021-01-27,,ELEC
"LONGFELLOW 1800 8 (90,90)",-122.392607,37.765772,San Francisco,2021-01-27,,ELEC
"LONGFELLOW 1800 6 (63,64)",-122.392596,37.765729,San Francisco,2021-01-27,,ELEC
UCSF CAMPUS ACC P6 EV2,-122.457764,37.763632,San Francisco,2021-01-27,,ELEC
UCSF CAMPUS ACC P5 EV1,-122.457767,37.763581,San Francisco,2021-01-27,,ELEC
UCSF CAMPUS ACC P7 EV1,-122.457796,37.763594,San Francisco,2021-01-27,,ELEC
UCSF CAMPUS ACC P4 EV2,-122.457668,37.76362,San Francisco,2021-01-27,,ELEC
UCSF CAMPUS ACC P4 EV1,-122.457735,37.763596,San Francisco,2021-01-27,,ELEC
UCSF CAMPUS ACC P6 EV1,-122.457735,37.763581,San Francisco,2021-01-27,,ELEC
275 BATTERY 275 BATTERY 2,-122.400509,37.793862,San Francisco,2021-01-27,,ELEC
BAMC P1 STATION 1,-122.391521,37.788012,San Francisco,2021-01-27,,ELEC
UCSF CAMPUS MBEVSE4,-122.39379,37.768297,San Francisco,2021-01-27,,ELEC
UCSF CAMPUS MBEVSE2,-122.393906,37.768289,San Francisco,2021-01-27,,ELEC
UCSF CAMPUS MBEVSE3,-122.393845,37.768295,San Francisco,2021-01-27,,ELEC
BASEMENT LEVEL 270 STATION 1,-122.391201,37.782725,San Francisco,2021-01-27,,ELEC
UDR 124-125,-122.392237,37.787178,San Francisco,2021-01-27,,ELEC
UDR 122-123,-122.392149,37.787118,San Francisco,2021-01-27,,ELEC
UDR 78-79,-122.392387,37.787207,San Francisco,2021-01-27,,ELEC
UDR 82-83,-122.392186,37.786974,San Francisco,2021-01-27,,ELEC
"UDR HP, FLOOR 1",-122.392307,37.787258,San Francisco,2021-01-27,,ELEC
UDR 120-121,-122.392092,37.787076,San Francisco,2021-01-27,,ELEC
UDR 80-81,-122.392264,37.78697,San Francisco,2021-01-27,,ELEC
MONOGRAM RES OLUME 1,-122.41607,37.77499,San Francisco,2021-01-27,,ELEC
CCSF - SFO SFO INT LOT G-3,-122.392493,37.615663,San Francisco,2021-01-27,,ELEC
CCSF - SFO SFO INT LOT G-1,-122.392937,37.615615,San Francisco,2021-01-27,,ELEC
CCSF - SFO SFO INT LOT G-6,-122.393111,37.615442,San Francisco,2021-01-27,,ELEC
CCSF - SFO SFO INT LOT G-7,-122.39307,37.615465,San Francisco,2021-01-27,,ELEC
CCSF - SFO SFO INT LOT G-8,-122.393017,37.615489,San Francisco,2021-01-27,,ELEC
PELL 600 HAR 2,-122.395826,37.784126,San Francisco,2021-01-27,,ELEC
ARE-ILLINOIS ST STATION 3,-122.387586,37.766082,San Francisco,2021-01-27,,ELEC
ESSEX MISSION BAY 2,-122.391581,37.773038,San Francisco,2021-01-27,,ELEC
ESSEX MISSION BAY 1,-122.391581,37.773066,San Francisco,2021-01-27,,ELEC
UCSF CAMPUS MBHOSPITAL EV8,-122.394116,37.76813,San Francisco,2021-01-27,,ELEC
UCSF CAMPUS MBHOSPITAL EV7,-122.394148,37.76813,San Francisco,2021-01-27,,ELEC
UCSF CAMPUS MBHOSPITAL EV3,-122.394273,37.76812,San Francisco,2021-01-27,,ELEC
UCSF CAMPUS MBHOSPITAL EV4,-122.394246,37.768121,San Francisco,2021-01-27,,ELEC
UCSF CAMPUS MBHOSPITAL EV6,-122.394181,37.768128,San Francisco,2021-01-27,,ELEC
UCSF CAMPUS MBHOSPITAL EV1,-122.394341,37.768114,San Francisco,2021-01-27,,ELEC
UCSF CAMPUS MBHOSPITAL EV2,-122.394307,37.76812,San Francisco,2021-01-27,,ELEC
WHOLE FOODS MKT 1150 OCEAN 2,-122.454964,37.723972,San Francisco,2021-01-27,,ELEC
ABM PARKING LOT 2-B,-122.38949,37.773114,San Francisco,2021-01-27,,ELEC
UDR SHOP 2,-122.397165,37.772625,San Francisco,2021-01-27,,ELEC
Mason O' Farrell Garage,-122.409766,37.786467,San Francisco,2021-02-08,,ELEC
FAA - National Airspace Facility (SFO ATCT),-122.378955,37.621313,San Francisco,2021-01-15,FG,ELEC
SEC San Francisco,-122.362181,37.812467,San Francisco,2021-01-15,FG,ELEC
EPA San Francisco,-122.398057,37.785487,San Francisco,2021-01-15,FG,ELEC
CHASE CENTER BRIDGECLUB 4,-122.388603,37.768069,San Francisco,2021-03-02,,ELEC
CHASE CENTER BRIDGECLUB 2,-122.388596,37.768094,San Francisco,2021-03-05,,ELEC
CHASE CENTER BRIDGECLUB 5,-122.388557,37.768179,San Francisco,2021-03-05,,ELEC
CHASE CENTER BRIDGECLUB 3,-122.388606,37.768088,San Francisco,2021-03-05,,ELEC
CHASE CENTER BRIDGECLUB 1,-122.388597,37.768085,San Francisco,2021-03-05,,ELEC
UNITED AIRLINES SFO EV 1,-122.395317,37.631874,San Francisco,2021-03-09,,ELEC
UNITED AIRLINES SFO EV 2,-122.395293,37.632131,San Francisco,2021-03-09,,ELEC
UNITED AIRLINES SFO EV 5,-122.3954,37.631944,San Francisco,2021-03-09,,ELEC
UNITED AIRLINES SFO EV 4,-122.395226,37.631649,San Francisco,2021-03-09,,ELEC
UNITED AIRLINES SFO EV 3,-122.395438,37.632014,San Francisco,2021-04-08,,ELEC
521423_St Marys Cathedral,-122.424892,37.784189,San Francisco,2021-04-29,,ELEC
City Center - Tesla Supercharger,-122.447026,37.782076,San Francisco,2021-05-23,P,ELEC
"Columbia REIT - 650 California, LLC",-122.405029,37.792629,San Francisco,2020-12-08,,ELEC
San Francisco International Airport - G1,-122.3968687,37.6161599,San Francisco,2021-05-17,LG,ELEC
San Francisco International Airport - G2,-122.3968687,37.6161599,San Francisco,2021-05-17,LG,ELEC
San Francisco International Airport - G5,-122.3968687,37.6161599,San Francisco,2021-05-17,LG,ELEC
San Francisco International Airport - G6,-122.3968687,37.6161599,San Francisco,2021-05-17,LG,ELEC
San Francisco International Airport - G10,-122.3968687,37.6161599,San Francisco,2021-05-17,LG,ELEC
San Francisco International Airport - G13,-122.3968687,37.6161599,San Francisco,2021-05-17,LG,ELEC
San Francisco International Airport - G7,-122.3968687,37.6161599,San Francisco,2021-05-17,LG,ELEC
San Francisco International Airport - G3 West,-122.3968687,37.6161599,San Francisco,2021-05-17,LG,ELEC
San Francisco International Airport - G3 East,-122.3968687,37.6161599,San Francisco,2021-05-17,LG,ELEC
San Francisco International Airport - D2 East,-122.3968687,37.6161599,San Francisco,2021-05-17,LG,ELEC
San Francisco International Airport - D2 West,-122.3968687,37.6161599,San Francisco,2021-05-17,LG,ELEC
San Francisco International Airport - D4 West,-122.3968687,37.6161599,San Francisco,2021-05-17,LG,ELEC
Three Embarcadero Center,-122.3973611,37.7951389,San Francisco,2012-02-06,,ELEC
500 Howard ST,-122.3967349,37.7884892,San Francisco,2016-06-16,,ELEC
531405  One Embarcadero Center,-122.3985089,37.794454,San Francisco,2018-06-28,,ELEC
One Embaracadero Center,-122.3996389,37.7944167,San Francisco,2012-02-06,,ELEC
531402 - Three Embarcadero Center,-122.397348,37.7948167,San Francisco,2014-04-14,,ELEC
Treasure Island JCC,-122.419416,37.77493,San Francisco,2021-09-21,FG,ELEC
HOSPITAL SMMC SF EV 01,-122.453227,37.773955,San Francisco,2021-10-28,,ELEC
HOSPITAL SMMC SF EV 03,-122.453587,37.774158,San Francisco,2021-10-28,,ELEC
HOSPITAL SMMC SF EV 02,-122.4533,37.77393,San Francisco,2021-10-28,,ELEC
UCSF CAMPUS MBEVSE5,-122.393709,37.768303,San Francisco,2021-10-28,,ELEC
HUDSON875 GW 1,-122.403957,37.781943,San Francisco,2021-12-23,,ELEC
1199 E Beach Street (US-TL7-QXE-1),-122.449455,37.806096,San Francisco,2021-12-17,,ELEC
Stonestown Galleria Peets,-122.476348,37.727838,San Francisco,2022-01-18,,ELEC
Stonestown Galleria Whole Foods,-122.475922,37.729487,San Francisco,2022-01-18,,ELEC
Stonestown Galleria City Sports Club,-122.477468,37.729744,San Francisco,2022-02-04,,ELEC
Stonestown Galleria,-122.477445,37.728165,San Francisco,2022-02-04,,ELEC
UDR 388 BEALE,-122.391629,37.787613,San Francisco,2022-02-09,,ELEC
UDR UDR STAION 9,-122.391763,37.787701,San Francisco,2022-02-09,,ELEC
UDR UDR 388 BEALE,-122.391971,37.787703,San Francisco,2022-02-11,,ELEC
Stonestown Galleria DCFC,-122.47625,37.728734,San Francisco,2022-01-18,,ELEC
425 MARKET ST. STATION 1,-122.398215,37.791332,San Francisco,2022-02-15,,ELEC
St Regis Hotel,-122.401217,37.785866,San Francisco,2020-08-13,P,ELEC
Four Seasons Hotel,-122.404781,37.786313,San Francisco,2020-04-21,P,ELEC
Design District,-122.401806,37.768251,San Francisco,2017-05-15,,ELEC
Design District 02,-122.401805,37.768313,San Francisco,2022-03-25,,ELEC
"LONGFELLOW 1800 10 (95,96)",-122.392553,37.765767,San Francisco,2022-04-01,,ELEC
SFSTATE LOT 20 01,-122.481349,37.72424,San Francisco,2022-05-10,,ELEC
SFSTATE LOT 20 03,-122.481444,37.724287,San Francisco,2022-05-10,,ELEC
SFSTATE LOT 20 04,-122.481488,37.724313,San Francisco,2022-05-10,,ELEC
SFSTATE LOT 20 05,-122.481533,37.724337,San Francisco,2022-05-10,,ELEC
SFSTATE LOT 20 06,-122.481579,37.724362,San Francisco,2022-05-10,,ELEC
SFSTATE LOT 20 02,-122.481395,37.724264,San Francisco,2022-05-10,,ELEC
SFSTATE LOT 20 07,-122.481476,37.724487,San Francisco,2022-05-10,,ELEC
SFSTATE LOT 20 08,-122.481428,37.724466,San Francisco,2022-05-10,,ELEC
SFSTATE LOT 20 09,-122.481382,37.724441,San Francisco,2022-05-10,,ELEC
SFSTATE LOT 20 10,-122.481334,37.724416,San Francisco,2022-05-10,,ELEC
SFSTATE LOT 20 11,-122.481289,37.724395,San Francisco,2022-05-10,,ELEC
SFSTATE LOT 20 12,-122.481249,37.724375,San Francisco,2022-05-10,,ELEC
1199 E Beach Street (US-TL7-QXE-2),-122.449455,37.806096,San Francisco,2022-05-17,,ELEC
RH3C+J3 Marina District (US-7MK-ZS3-2),-122.429803,37.804146,San Francisco,2022-05-04,,ELEC
EVSP WALGREENS STORE 4570,-122.498475,37.741657,San Francisco,2022-06-01,,ELEC
100 PINE PARKING LEVEL 1,-122.399081,37.792644,San Francisco,2022-06-03,,ELEC
Alice Griffith Apartments - 2600,-122.385519,37.71823,San Francisco,2022-07-05,,ELEC
221 Main Public Parking Garage,-122.39221,37.790344,San Francisco,2022-07-08,,ELEC
Moma-City Park,-122.400421,37.786471,San Francisco,2022-07-12,,ELEC
Millennium Towers,-122.395922,37.790543,San Francisco,2022-02-04,P,ELEC
100 PINE GARAGE B3,-122.399038,37.792644,San Francisco,2022-07-26,,ELEC
SFSTATE LOT 20 18,-122.481046,37.72431,San Francisco,2022-08-10,,ELEC
NEMA Apartments,-122.417239,37.775819,San Francisco,2022-08-25,,ELEC
101 LOMBARD ST LEVI'S PLAZA 2,-122.40271,37.8029,San Francisco,2022-09-02,,ELEC
MILLS GARAGE MILLS GARAGE,-122.402356,37.791303,San Francisco,2022-09-08,,ELEC
UC Hastings Parking Garage,-122.41668,37.781147,San Francisco,2018-03-07,,ELEC
Trinity Place,-122.41375,37.7782,San Francisco,2022-03-01,,ELEC
Whole Foods Market,-122.4268005,37.7681548,San Francisco,2018-03-07,,ELEC
Walgreens,-122.41723,37.80501,San Francisco,2018-03-07,,ELEC
Whole Foods Market,-122.39974,37.78122,San Francisco,2018-03-07,,ELEC
Whole Foods Market,-122.40282,37.76443,San Francisco,2018-03-07,,ELEC
Whole Foods Market,-122.423811,37.789923,San Francisco,2018-03-07,,ELEC
Whole Foods Market,-122.454409,37.723957,San Francisco,2018-03-07,,ELEC
AMC Parking Lot Geary Blvd,-122.4198061,37.7850447,San Francisco,2021-07-04,,ELEC
Lucky San Francisco #756,-122.44565,37.77604,San Francisco,2021-02-03,,ELEC
EVgo 350 Pacific Hub,-122.40172,37.79776,San Francisco,2021-07-04,,ELEC
The Masonic P1 DCFC,-122.41294,37.791187,San Francisco,2022-08-16,,ELEC
CCSF - Ocean Campus South Parking Lot,-122.44793,37.725345,San Francisco,2022-06-30,,ELEC
Nema Valet Parking Garage DCFC,-122.417213,37.775794,San Francisco,2022-06-14,,ELEC
1000 Green St Apartments,-122.415833,37.798818,San Francisco,2022-09-15,P,ELEC
DGS Lot 88,-122.4211,37.78066,San Francisco,2022-09-30,,ELEC
303 SECOND ST. KILROY REALTY 1,-122.39538,37.784839,San Francisco,2022-10-14,,ELEC
303 SECOND ST. KILROY REALTY 2,-122.395214,37.784843,San Francisco,2022-10-14,,ELEC
UNITED AIRLINES SFOMP 1,-122.393375,37.637894,San Francisco,2022-10-21,,ELEC
UNITED AIRLINES SFOMP 2,-122.393418,37.637962,San Francisco,2022-10-21,,ELEC
UNITED AIRLINES SFOMP 4,-122.393174,37.637586,San Francisco,2022-10-26,,ELEC
UNITED AIRLINES SFOMP 3,-122.39338,37.637949,San Francisco,2022-10-28,,ELEC
SFSTATE LOT 20 17,-122.481139,37.724134,San Francisco,2022-11-01,,ELEC
SFSTATE LOT 20 15,-122.481047,37.724085,San Francisco,2022-11-01,,ELEC
SFSTATE LOT 20 14,-122.481002,37.724058,San Francisco,2022-11-01,,ELEC
SFSTATE LOT 20 16,-122.481094,37.724109,San Francisco,2022-11-01,,ELEC
SFSTATE LOT 20 13,-122.480954,37.724031,San Francisco,2022-11-01,,ELEC
SFSTATE LOT 20 19,-122.481347,37.723921,San Francisco,2022-11-01,,ELEC
UNITED AIRLINES SFOMP 5,-122.393279,37.637936,San Francisco,2022-11-03,,ELEC
STATION 1 STATION 2,-122.39908,37.794122,San Francisco,2022-11-04,,ELEC
650 TOWNSEND BCP 3,-122.403937,37.770303,San Francisco,2022-11-09,,ELEC
650 TOWNSEND BCP 2,-122.403883,37.770252,San Francisco,2022-11-09,,ELEC
650 TOWNSEND BCP 7,-122.40384,37.770286,San Francisco,2022-11-09,,ELEC
650 TOWNSEND BCP 9,-122.403873,37.770269,San Francisco,2022-11-09,,ELEC
650 TOWNSEND BCP 5,-122.403883,37.770235,San Francisco,2022-11-09,,ELEC
650 TOWNSEND BCP 6,-122.403873,37.770218,San Francisco,2022-11-09,,ELEC
650 TOWNSEND BCP 8,-122.403873,37.770286,San Francisco,2022-11-09,,ELEC
650 TOWNSEND BCP 4,-122.403926,37.770269,San Francisco,2022-11-09,,ELEC
650 TOWNSEND BCP 1,-122.403787,37.770336,San Francisco,2022-11-17,,ELEC
HUDSON PACIFIC 1455 LOBBY 1,-122.418191,37.775745,San Francisco,2022-11-18,,ELEC
HUDSON PACIFIC 1455 LOBBY 2,-122.418214,37.775747,San Francisco,2022-11-18,,ELEC
650 TOWNSEND BCP 10,-122.40383,37.770235,San Francisco,2022-11-20,,ELEC
MHC 78 L.P. 691CHINABASINEV,-122.392623,37.771541,San Francisco,2022-12-03,,ELEC
Impark Parking,-122.409755,37.79032,San Francisco,2022-10-13,,ELEC
"San Francisco, CA - Letterman Drive (Wall Connector) - Tesla Destination",-122.448332,37.798837,San Francisco,2019-05-22,P,ELEC
"San Francisco, CA - 2675 Geary Boulevard - Tesla Destination",-122.44641,37.78223,San Francisco,2022-05-09,P,ELEC
555 DE HARO 555DEHARO,-122.400756,37.76261,San Francisco,2023-01-26,,ELEC
Webster Street Care Center Northeast DCFC,-122.432202,37.790495,San Francisco,2023-02-08,,ELEC
CCSF - Ocean Campus North Parking Lot,-122.447845,37.726154,San Francisco,2023-02-08,,ELEC
The Masonic P1,-122.412899,37.791206,San Francisco,2023-02-08,,ELEC
CCSF - Ocean Campus Cloud Circle,-122.449541,37.725956,San Francisco,2023-02-08,,ELEC
CCSF - Ocean Campus Multi-Use Building Lot,-122.452746,37.72491,San Francisco,2023-02-08,,ELEC
Webster Street Care Center Southwest DCFC,-122.432179,37.79038,San Francisco,2023-02-08,,ELEC
The Masonic P3 DCFC,-122.41282,37.791135,San Francisco,2023-02-08,,ELEC
Stonestown Galleria Peets DCFC,-122.476323,37.727952,San Francisco,2023-02-08,,ELEC
2100 Webster Street Care Center,-122.432133,37.790471,San Francisco,2023-02-08,,ELEC
Stonestown Galleria 03-04,-122.476698,37.728375,San Francisco,2023-02-08,,ELEC
The Masonic P3,-122.412815,37.791197,San Francisco,2023-02-08,,ELEC
RINCON CENTER STATION 2,-122.393045,37.791884,San Francisco,2023-02-24,,ELEC
RINCON CENTER STATION 1,-122.393088,37.791926,San Francisco,2023-02-28,,ELEC
UCSF CAMPUS 1-1,-122.388231,37.764719,San Francisco,2023-03-09,,ELEC
UCSF CAMPUS 1-2,-122.38821,37.764634,San Francisco,2023-03-09,,ELEC
UCSF CAMPUS 1-3,-122.388274,37.76466,San Francisco,2023-03-09,,ELEC
UCSF CAMPUS 1-4,-122.388242,37.764982,San Francisco,2023-03-09,,ELEC
UCSF CAMPUS 1-S1,-122.38836,37.764889,San Francisco,2023-03-09,,ELEC
UCSF CAMPUS 2-S1,-122.388424,37.764761,San Francisco,2023-03-09,,ELEC
UCSF CAMPUS 2-S2,-122.388478,37.76505,San Francisco,2023-03-09,,ELEC
UCSF CAMPUS 2-1,-122.388317,37.764643,San Francisco,2023-03-09,,ELEC
UCSF CAMPUS 2-2,-122.38821,37.764842,San Francisco,2023-03-09,,ELEC
UCSF CAMPUS 2-3,-122.388408,37.764694,San Francisco,2023-03-09,,ELEC
101 CAL PARKING LL1-4AB,-122.398307,37.793265,San Francisco,2023-03-11,,ELEC
101 CAL PARKING LL1-6AB,-122.398307,37.793282,San Francisco,2023-03-11,,ELEC
RH3C+J3 Marina District (US-7MK-ZS3-3),-122.42974,37.804152,San Francisco,2022-09-20,,ELEC
RH3C+J3 Marina District (US-7MK-ZS3-4),-122.42974,37.804152,San Francisco,2022-09-20,,ELEC
RH3C+J3 Marina District (US-7MK-ZS3-1),-122.429803,37.804146,San Francisco,2022-09-20,,ELEC
1200 California Corporation,-122.414455,37.791743,San Francisco,2023-03-20,,ELEC
101 LOMBARD ST LEVIS RAPID 2,-122.404534,37.803712,San Francisco,2023-04-13,,ELEC
101 LOMBARD ST LEVIS RAPID 1,-122.404469,37.803712,San Francisco,2023-04-13,,ELEC
560 Mission Street,-122.3994457,37.7888023,San Francisco,2015-10-13,,ELEC
101 CAL PARKING LL1-3,-122.398296,37.793172,San Francisco,2023-05-17,,ELEC
JLL/Ace Parking,-122.3951353,37.7885734,San Francisco,2023-01-20,P,ELEC
InterContinental Hotel San Francisco,-122.4048266,37.7822079,San Francisco,2023-04-19,P,ELEC
NORTHPARK GAW 750 FRONT S-1,-122.399652,37.798193,San Francisco,2023-06-14,,ELEC
NORTHPARK GAW 750 FRONT S-2,-122.399641,37.798203,San Francisco,2023-06-14,,ELEC
HUDSON PACIFIC 1455 DOCK 2,-122.41779,37.775448,San Francisco,2023-06-15,,ELEC
HUDSON PACIFIC 1455 DOCK 1,-122.41808,37.775497,San Francisco,2023-06-15,,ELEC
Harrison Street Flagship,-122.40272,37.77856,San Francisco,2023-06-22,,ELEC
50 JONES EV 50 JONES EV 1,-122.411966,37.781541,San Francisco,2023-06-23,,ELEC
50 JONES EV 50 JONES EV 2,-122.411955,37.781493,San Francisco,2023-06-23,,ELEC
50 JONES EV 50 JONES EV 3,-122.412153,37.78165,San Francisco,2023-06-23,,ELEC
UCSF CAMPUS 2130 3RD ST,-122.389221,37.762652,San Francisco,2023-07-14,,ELEC
Potrero Center - Tesla Supercharger,-122.409857,37.765808,San Francisco,2023-07-20,P,ELEC
STRATA STRATA 2,-122.390913,37.772668,San Francisco,2023-07-25,,ELEC
STRATA STRATA 1,-122.390858,37.772687,San Francisco,2023-07-25,,ELEC
Safeway San Francisco #2646,-122.465106,37.775101,San Francisco,2023-07-30,,ELEC
SFO 674 North McDonnell Road Stations,-122.39936,37.62169,San Francisco,2022-12-20,LG,ELEC
SFO 674 North McDonnell Road Stations,-122.39936,37.62169,San Francisco,2022-12-20,LG,ELEC
SFO Courtyard 4,-122.40095,37.62646,San Francisco,2023-12-20,LG,ELEC
SFO Courtyard A,-122.390108,37.614485,San Francisco,2022-12-20,LG,ELEC
SFO Courtyard G,-122.39071,37.616035,San Francisco,2022-12-20,LG,ELEC
SFO Business Center,-122.39549,37.61589,San Francisco,2022-12-20,LG,ELEC
Bldg 710,-122.40046,37.62477,San Francisco,2022-12-20,LG,ELEC
SFO Long Term Parking Garage,-122.40055,37.63655,San Francisco,2022-12-20,LG,ELEC
SFO Lot D,-122.399045,37.63178,San Francisco,2022-12-20,LG,ELEC
SFO Lot C,-122.395662,37.615336,San Francisco,2022-12-20,LG,ELEC
SFO West Field,-122.395127,37.62289,San Francisco,2022-12-20,LG,ELEC
345 CAL EVCS 345 CAL EVCS,-122.400546,37.793016,San Francisco,2023-08-12,,ELEC
Second Street Fund,-122.3914178,37.7862909,San Francisco,2022-04-27,,ELEC
Chan Zuckerberg Biohub,-122.3877002,37.7658385,San Francisco,2022-05-11,,ELEC
150 Van Ness,-122.4192281,37.7772738,San Francisco,2015-01-29,,ELEC
Greenwich Street Properties,-122.4205045,37.8007726,San Francisco,2020-12-04,,ELEC
Plant Construction,-122.3856749,37.7426395,San Francisco,2011-12-30,,ELEC
55 Hawthorne St. - EV ONLY,-122.3985582590103,37.78536930707393,San Francisco,2023-09-23,,ELEC
2860 16th St,-122.41673,37.76549,San Francisco,2023-10-06,,ELEC
CCSF-SFMTA LOMBARD 1,-122.435,37.799704,San Francisco,2023-10-24,,ELEC
CCSF-SFMTA NORTH BEACH 2,-122.409634,37.798256,San Francisco,2023-10-24,,ELEC
CCSF-SFMTA NORTH BEACH 1,-122.409523,37.798398,San Francisco,2023-10-24,,ELEC
CCSF-SFMTA NORTH BEACH 3,-122.409677,37.798256,San Francisco,2023-10-24,,ELEC
CCSF-SFMTA MISSION ST 4,-122.405472,37.783289,San Francisco,2023-10-24,,ELEC
CCSF-SFMTA MISSION ST 5,-122.405308,37.783351,San Francisco,2023-10-24,,ELEC
CCSF-SFMTA MISSION ST 3,-122.405271,37.783383,San Francisco,2023-10-24,,ELEC
CCSF-SFMTA MISSION ST 7,-122.40531,37.783396,San Francisco,2023-10-24,,ELEC
CCSF-SFMTA MISSION ST 2,-122.405354,37.783374,San Francisco,2023-10-24,,ELEC
CCSF-SFMTA GGG 1,-122.399002,37.795406,San Francisco,2023-10-24,,ELEC
CCSF-SFMTA MOSCONE CTR 4,-122.399567,37.78453,San Francisco,2023-10-24,,ELEC
CCSF-SFMTA MOSCONE CTR 2,-122.39953,37.78452,San Francisco,2023-10-24,,ELEC
CCSF-SFMTA MOSCONE CTR 1,-122.399528,37.784473,San Francisco,2023-10-24,,ELEC
CCSF-SFMTA PORTSMOUTH SQ 2,-122.405266,37.794774,San Francisco,2023-10-24,,ELEC
CCSF-SFMTA JAPAN CTR 2,-122.430086,37.784992,San Francisco,2023-10-24,,ELEC
CCSF-SFMTA SUTTER 3,-122.406469,37.790056,San Francisco,2023-10-24,,ELEC
CCSF-SFMTA SUTTER 4,-122.406898,37.789886,San Francisco,2023-10-24,,ELEC
CCSF-SFMTA SUTTER 2,-122.406504,37.790018,San Francisco,2023-10-24,,ELEC
CCSF-SFMTA UNION SQUARE 4,-122.40751,37.787949,San Francisco,2023-10-24,,ELEC
CCSF-SFMTA UNION SQUARE 1,-122.407477,37.787927,San Francisco,2023-10-24,,ELEC
CCSF-SFMTA UNION SQUARE 3,-122.40753,37.787929,San Francisco,2023-10-24,,ELEC
CCSF-SFMTA CIVIC CTR 1,-122.417363,37.780157,San Francisco,2023-10-24,,ELEC
CCSF-SFMTA GGG 3,-122.396773,37.793393,San Francisco,2023-10-24,,ELEC
CCSF-SFMTA MISSION ST 6,-122.405242,37.783397,San Francisco,2023-10-25,,ELEC
CCSF-SFMTA POLK BUSH 1,-122.41999,37.788519,San Francisco,2023-10-25,,ELEC
CCSF-SFMTA PORTSMOUTH SQ 1,-122.405164,37.794678,San Francisco,2023-10-25,,ELEC
CCSF-SFMTA MOSCONE CTR 3,-122.399373,37.784686,San Francisco,2023-10-25,,ELEC
CCSF-SFMTA SFGH 1,-122.405087,37.755681,San Francisco,2023-10-25,,ELEC
CCSF-SFMTA SFGH 2,-122.405065,37.755619,San Francisco,2023-10-25,,ELEC
CCSF-SFMTA CIVIC CTR 2,-122.417495,37.780157,San Francisco,2023-10-25,,ELEC
CCSF-SFMTA CIVIC CTR 3,-122.41741,37.780116,San Francisco,2023-10-25,,ELEC
CCSF-SFMTA PAG 3,-122.422501,37.778265,San Francisco,2023-10-25,,ELEC
CCSF-SFMTA PAG 1,-122.422554,37.777783,San Francisco,2023-10-25,,ELEC
CCSF-SFMTA PAG 4,-122.422501,37.778299,San Francisco,2023-10-25,,ELEC
CCSF-SFMTA ST MARYS 1,-122.404583,37.792048,San Francisco,2023-10-25,,ELEC
CCSF-SFMTA ST MARYS 2,-122.404698,37.792098,San Francisco,2023-10-25,,ELEC
CCSF-SFMTA ST MARYS 3,-122.404562,37.791703,San Francisco,2023-10-25,,ELEC
1199 E Beach Street (US-TL7-QXE-3),-122.4494378320569,37.80610328835066,San Francisco,2023-10-25,,ELEC
1199 E Beach Street (US-TL7-QXE-4),-122.4494378320569,37.80610328835066,San Francisco,2023-10-25,,ELEC
680 Point Lobos Ave (US-6ZD-X6E-1),-122.5117904,37.7801861,San Francisco,2023-10-25,,ELEC
680 Point Lobos Ave (US-6ZD-X6E-2),-122.50557,37.78497,San Francisco,2023-10-25,,ELEC
CCSF-SFMTA PAG 2,-122.422485,37.778303,San Francisco,2023-10-27,,ELEC
983 Marine Dr (US-KYA-CW3-1),-122.4709806,37.8080383,San Francisco,2023-11-01,,ELEC
983 Marine Dr (US-KYA-CW3-2),-122.4709806,37.8080384,San Francisco,2023-11-01,,ELEC
Lincoln Blvd (US-EZR-58X-2),-122.4725058,37.807143,San Francisco,2023-10-31,,ELEC
Lincoln Blvd (US-EZR-58X-1),-122.4724722,37.8071345,San Francisco,2023-10-31,,ELEC
Safeway San Francisco #0785 - 850 La Playa,-122.50907,37.77158,San Francisco,2023-11-03,,ELEC
CCSF-SFMTA GGG 2,-122.399051,37.795447,San Francisco,2023-11-10,,ELEC
The Summit 999,-122.41516,37.79849,San Francisco,2023-08-04,P,ELEC
303 SECOND ST. KILROY DCFC 4,-122.396305,37.785597,San Francisco,2023-11-21,,ELEC
303 SECOND ST. KILROY DCFC 3,-122.396019,37.785522,San Francisco,2023-11-21,,ELEC
CCSF-SFMTA MISSION ST 1,-122.405268,37.783409,San Francisco,2023-11-23,,ELEC
MICHAEL STATION 1,-122.420268,37.787641,San Francisco,2023-12-21,,ELEC
CHASE CENTER STATION 1,-122.386445,37.769101,San Francisco,2024-01-11,,ELEC
CHASE CENTER STATION 2,-122.386616,37.769092,San Francisco,2024-01-12,,ELEC
CHASE CENTER STATION 6,-122.386531,37.769084,San Francisco,2024-01-12,,ELEC
CHASE CENTER STATION 5,-122.386595,37.769109,San Francisco,2024-01-12,,ELEC
CHASE CENTER GSWCC-STATION3,-122.386509,37.769118,San Francisco,2024-01-12,,ELEC
CHASE CENTER STATION 4,-122.386509,37.769084,San Francisco,2024-01-12,,ELEC
CHASE CENTER GSWCC-STATION13,-122.386466,37.769092,San Francisco,2024-01-13,,ELEC
CHASE CENTER GSWCC-STATION11,-122.386498,37.769126,San Francisco,2024-01-13,,ELEC
CHASE CENTER STATION 15,-122.386541,37.769109,San Francisco,2024-01-13,,ELEC
CHASE CENTER STATION 17,-122.386531,37.769118,San Francisco,2024-01-13,,ELEC
CHASE CENTER STATION 11,-122.386552,37.769084,San Francisco,2024-01-13,,ELEC
CHASE CENTER STATION 20,-122.386573,37.769118,San Francisco,2024-01-13,,ELEC
CHASE CENTER GSWCC-STATION1,-122.386509,37.769126,San Francisco,2024-01-13,,ELEC
CHASE CENTER GSWCC-STATION10,-122.386563,37.769135,San Francisco,2024-01-13,,ELEC
HILLS PLAZA HP EV 2,-122.389882,37.789776,San Francisco,2024-01-25,,ELEC
HILLS PLAZA HP EV 1,-122.389885,37.789815,San Francisco,2024-01-25,,ELEC
ACE Parking,-122.412238,37.7783901,San Francisco,2015-03-26,,ELEC
VENUE 2,-122.391181,37.773308,San Francisco,2024-02-15,,ELEC
VENUE 1,-122.391227,37.773302,San Francisco,2024-02-15,,ELEC
SFSTATE LOT 02 20,-122.475978,37.721019,San Francisco,2024-02-29,,ELEC
SFSTATE LOT 02 21,-122.476185,37.721041,San Francisco,2024-03-02,,ELEC
CCSF-SFMTA SUTTER 6,-122.40682,37.789824,San Francisco,2024-04-18,,ELEC
Columbia REIT - Parking Garage 650 California St,-122.4052731911553,37.79317661922026,San Francisco,2024-04-18,,ELEC
La Galleria Residences,-122.41255,37.78969,San Francisco,2023-05-15,P,ELEC
Potrero Center,-122.409502,37.7658228,San Francisco,2024-06-15,,ELEC
Kissing St Garage,-122.4152867,37.7719898,San Francisco,2024-07-11,,ELEC
Volvo San Francisco,-122.4159858,37.7720226,San Francisco,2024-07-11,,ELEC
Metro Cruise Services,-122.401927,37.805419,San Francisco,2024-07-23,,ELEC
501 SECOND 501 SECOND ST,-122.393015,37.783127,San Francisco,2024-08-23,,ELEC
Market Square,-122.41647,37.77712,San Francisco,2024-01-01,P,ELEC
Chargie - 11667,-122.43997,37.78465,San Francisco,2024-06-23,P,ELEC
Three Embarcadero Center 2,-122.3973611,37.7951389,San Francisco,2018-06-29,,ELEC
Ridge Reef Properties - Parking Lot,-122.418267,37.7475747,San Francisco,2023-03-07,,ELEC
GARAGE 1,-122.40364,37.794932,San Francisco,2024-09-27,,ELEC
GARAGE 2,-122.403639,37.794934,San Francisco,2024-09-27,,ELEC
Hotel Whitcomb - Tesla Destination,-122.41507,37.77805,San Francisco,2024-07-01,P,ELEC
Hyatt Regency SOMA - Tesla Destination,-122.403161,37.786604,San Francisco,2024-07-01,P,ELEC
Holiday Inn Express & Suites San Francisco Fishermans Wharf - Tesla Destination,-122.416436,37.806633,San Francisco,2024-07-01,P,ELEC
Luma Hotel - Tesla Destination,-122.3902,37.77466,San Francisco,2024-07-01,P,ELEC
Galleria Park Hotel - Tesla Destination,-122.403558,37.789651,San Francisco,2024-07-01,P,ELEC
The Linden,-122.41022585,37.65439917,San Francisco,2024-10-17,,ELEC
CHASE CENTER GSWCC-STATION2,-122.386498,37.769143,San Francisco,2024-12-05,,ELEC
CHASE CENTER GOLDEN ST 40,-122.386531,37.769109,San Francisco,2024-12-05,,ELEC
CHASE CENTER GSWCC-STATION6,-122.386573,37.769135,San Francisco,2024-12-05,,ELEC
CHASE CENTER GOLDEN ST 5,-122.38652,37.76905,San Francisco,2024-12-05,,ELEC
CHASE CENTER GSWCC-STATION12,-122.386488,37.769101,San Francisco,2024-12-05,,ELEC
CHASE CENTER GSWCC-STATION5,-122.386531,37.769152,San Francisco,2024-12-05,,ELEC
CHASE CENTER GSWCC-STATION4,-122.38652,37.769143,San Francisco,2024-12-05,,ELEC
CHASE CENTER WARRIOR 1,-122.386509,37.769109,San Francisco,2024-12-05,,ELEC
CHASE CENTER GSWCC-STATION9,-122.386563,37.769126,San Francisco,2024-12-05,,ELEC
CHASE CENTER GOLDEN ST 10,-122.386734,37.769084,San Francisco,2024-12-05,,ELEC
CHASE CENTER GOLDENGW5,-122.386627,37.769092,San Francisco,2024-12-05,,ELEC
CHASE CENTER GSWCC-STATION8,-122.386531,37.769135,San Francisco,2024-12-05,,ELEC
CHASE CENTER GSWCC-STATION7,-122.386498,37.769135,San Francisco,2024-12-05,,ELEC
